record_seq,record_wall_time_iso,record_wall_time_float,record_ros_time,header_seq,header_stamp,header_frame_id,child_frame_id,pose_position_x,pose_position_y,pose_position_z,pose_orientation_x,pose_orientation_y,pose_orientation_z,pose_orientation_w,euler_roll,euler_pitch,euler_yaw,vel_linear_x,vel_linear_y,vel_linear_z,vel_angular_x,vel_angular_y,vel_angular_z,acc_linear_x,acc_linear_y,acc_linear_z,acc_angular_x,acc_angular_y,acc_angular_z,lateral_steering_angle,lateral_steering_angle_velocity,lateral_rear_wheel_angle,lateral_rear_wheel_angle_velocity,wheel_speed_left_front,wheel_speed_left_rear,wheel_speed_right_front,wheel_speed_right_rear,gear,control_mode,hand_brake,emergency,clutch,steering_mode,throttle_fb,brake_fb,tracking_lateral_tracking_error,tracking_heading_angle_error,tracking_velocity_error,trailer_pose_position_x,trailer_pose_position_y,trailer_pose_position_z,trailer_pose_orientation_x,trailer_pose_orientation_y,trailer_pose_orientation_z,trailer_pose_orientation_w,trailer_euler_roll,trailer_euler_pitch,trailer_euler_yaw,trailer_vel_linear_x,trailer_vel_linear_y,trailer_vel_linear_z,trailer_vel_angular_x,trailer_vel_angular_y,trailer_vel_angular_z,trailer_acc_linear_x,trailer_acc_linear_y,trailer_acc_linear_z,trailer_acc_angular_x,trailer_acc_angular_y,trailer_acc_angular_z,ltr_state_ltr,ltr_state_ltr_rate
0,2026-03-25 19:35:12.195429,1774438512.1954594,1774438512.1954982,45766,1774438512.1818583,ego_vehicle/odometry,ego_vehicle,-18.800198481334206,4.701524081686946,-1.3986974954605103,0.06780647840946011,-0.017179689842998756,-0.9973322057549059,0.020871298633766085,0.03744724020361902,0.1349432170391083,-3.0972137451171875,0.0,0.0,0.0,-0.018546447157859802,0.0018066875636577606,-0.000650509842671454,-0.19213034212589264,0.020303819328546524,9.783451080322266,0.0,0.0,0.0,0.0,0.0,0.0,0.0,0.0,0.0,0.0,0.0,1,0,False,False,True,1,0.0,0.0,2.2251522497096206,0.4778266532782318,0.8,0.0,0.0,0.0,0.0,0.0,0.0,0.0,0.0024999999999999996,0.045700000000000005,0.15349259999999987,0.0,0.0,0.0,-0.002,0.0,0.001,0.11,-0.04,10.01,0.0,0.0,0.0,0.015473559498786926,-0.003413610393181443
1,2026-03-25 19:35:12.201965,1774438512.2019944,1774438512.2020226,45767,1774438512.2214255,ego_vehicle/odometry,ego_vehicle,-18.801369326907313,4.702847024611511,-1.3987754583358765,0.06782354690248639,-0.017106868202169338,-0.9973324098485221,0.020865900690351793,0.0373007282614708,0.1349808573722839,-3.097233772277832,0.0,0.0,0.0,-0.015624258667230606,0.002869711257517338,0.002549279946833849,-0.20594164729118347,0.1030227541923523,9.769041061401367,0.0,0.0,0.0,0.0,0.0,0.0,0.0,0.0,0.0,0.0,0.0,1,0,False,False,True,1,0.0,0.0,2.218784400714855,0.4776096923712494,0.8,0.0,0.0,0.0,0.0,0.0,0.0,0.0,0.0024999999999999996,0.045700000000000005,0.15349259999999987,0.0,0.0,0.0,-0.002,0.0,0.001,0.11,-0.04,10.01,0.0,0.0,0.0,0.015473559498786926,-0.003413610393181443
2,2026-03-25 19:35:12.211793,1774438512.2118325,1774438512.2118597,45768,1774438512.2313163,ego_vehicle/odometry,ego_vehicle,-18.801668840909063,4.703173108365187,-1.3987958431243896,0.06784042326361422,-0.01707792617491369,-0.9973316777342252,0.020869738781630252,0.03724381700158119,0.13501581549644473,-3.097229242324829,-0.00040435791015625,0.0,0.0,-0.01748829521238804,0.0023390832357108593,0.0022832828108221292,-0.18131884932518005,0.1132064238190651,9.752824783325195,0.0,0.0,0.0,0.0,0.0,0.0,0.0,-0.091552734375,-0.091552734375,-0.091552734375,-0.091552734375,1,0,False,False,True,1,0.0,0.0,2.218784400714855,0.4776096923712494,0.8,0.0,0.0,0.0,0.0,0.0,0.0,0.0,0.0025000000000000014,0.0454,0.1533926000000001,0.0,0.0,0.0,-0.002,0.0,-0.0,0.16,0.02,10.02,0.0,0.0,0.0,0.015557002276182175,-0.0018977961735799909
3,2026-03-25 19:35:12.221756,1774438512.2217882,1774438512.2218156,45769,1774438512.2313163,ego_vehicle/odometry,ego_vehicle,-18.801668840909063,4.703173108365187,-1.3987958431243896,0.06784042326361422,-0.01707792617491369,-0.9973316777342252,0.020869738781630252,0.03724381700158119,0.13501581549644473,-3.097229242324829,-0.00040435791015625,0.0,0.0,-0.018827004358172417,0.0034064867068082094,0.0033540145959705114,-0.17231124639511108,0.12757429480552673,9.754642486572266,0.0,0.0,0.0,0.0,0.0,0.0,0.0,-0.091552734375,-0.091552734375,-0.091552734375,-0.091552734375,1,0,False,False,True,1,0.0,0.0,2.218784400714855,0.4776096923712494,0.8,0.0,0.0,0.0,0.0,0.0,0.0,0.0,0.0025000000000000014,0.0454,0.1533926000000001,0.0,0.0,0.0,-0.002,0.0,-0.0,0.16,0.02,10.02,0.0,0.0,0.0,0.015557002276182175,-0.0018977961735799909
4,2026-03-25 19:35:12.231640,1774438512.2316744,1774438512.2317004,45770,1774438512.2313163,ego_vehicle/odometry,ego_vehicle,-18.801668840909063,4.703173108365187,-1.3987958431243896,0.06784042326361422,-0.01707792617491369,-0.9973316777342252,0.020869738781630252,0.03724381700158119,0.13501581549644473,-3.097229242324829,0.0,0.0,0.0,-0.022821933031082153,0.002605919959023595,0.003350835060700774,-0.1789579838514328,0.13421067595481873,9.781049728393555,0.0,0.0,0.0,0.0,0.0,0.0,0.0,0.0,0.0,0.0,0.0,1,0,False,False,True,1,0.0,0.0,2.218784400714855,0.4776096923712494,0.8,0.0,0.0,0.0,0.0,0.0,0.0,0.0,0.0025000000000000014,0.0454,0.1533926000000001,0.0,0.0,0.0,-0.0,-0.001,0.001,0.16,0.11,10.06,0.0,0.0,0.0,0.015125975012779236,-0.005759398452937603
5,2026-03-25 19:35:12.242019,1774438512.2420511,1774438512.2420764,45771,1774438512.2313163,ego_vehicle/odometry,ego_vehicle,-18.801668840909063,4.703173108365187,-1.3987958431243896,0.06784042326361422,-0.01707792617491369,-0.9973316777342252,0.020869738781630252,0.03724381700158119,0.13501581549644473,-3.097229242324829,0.00040435791015625,0.0,0.0,-0.022025590762495995,0.005534462630748749,0.0009568218374624848,-0.18017807602882385,0.17915800213813782,9.798484802246094,0.0,0.0,0.0,0.0,0.0,0.0,0.0,0.091552734375,0.091552734375,0.091552734375,0.091552734375,1,0,False,False,True,1,0.0,0.0,2.218784400714855,0.4776096923712494,0.8,0.0,0.0,0.0,0.0,0.0,0.0,0.0,0.0025000000000000014,0.0454,0.1533926000000001,0.0,0.0,0.0,-0.001,0.0,0.004,0.17,0.02,9.86,0.0,0.0,0.0,0.015044160187244415,-0.005440437700599432
6,2026-03-25 19:35:12.251810,1774438512.2518425,1774438512.251866,45772,1774438512.2313163,ego_vehicle/odometry,ego_vehicle,-18.801668840909063,4.703173108365187,-1.3987958431243896,0.06784042326361422,-0.01707792617491369,-0.9973316777342252,0.020869738781630252,0.03724381700158119,0.13501581549644473,-3.097229242324829,0.00040435791015625,0.0,0.0,-0.022554010152816772,0.004468219820410013,0.00042037415551021695,-0.19570279121398926,0.1149987131357193,9.729998588562012,0.0,0.0,0.0,0.0,0.0,0.0,0.0,0.091552734375,0.091552734375,0.091552734375,0.091552734375,1,0,False,False,True,1,0.0,0.0,2.218949471578691,0.4775941951636078,0.7995956420898438,0.0,0.0,0.0,0.0,0.0,0.0,0.0,0.0025000000000000014,0.0454,0.1533926000000001,0.0,0.0,0.0,-0.001,0.0,0.004,0.17,0.02,9.86,0.0,0.0,0.0,0.015044160187244415,-0.005440437700599432
7,2026-03-25 19:35:12.261984,1774438512.2621603,1774438512.2622104,45773,1774438512.2313163,ego_vehicle/odometry,ego_vehicle,-18.801668840909063,4.703173108365187,-1.3987958431243896,0.06784042326361422,-0.01707792617491369,-0.9973316777342252,0.020869738781630252,0.03724381700158119,0.13501581549644473,-3.097229242324829,0.0,0.0,0.0,-0.019349051639437675,0.0034067281521856785,-0.0017115838127210736,-0.17107221484184265,0.07660938799381256,9.730012893676758,0.0,0.0,0.0,0.0,0.0,0.0,0.0,0.0,0.0,0.0,0.0,1,0,False,False,True,1,0.0,0.0,2.218949471578691,0.4775941951636078,0.7995956420898438,0.0,0.0,0.0,0.0,0.0,0.0,0.0,0.0025000000000000014,0.0454,0.1533926000000001,0.0,0.0,0.0,-0.001,0.0,0.004,0.17,0.02,9.86,0.0,0.0,0.0,0.015044160187244415,-0.005440437700599432
8,2026-03-25 19:35:12.271731,1774438512.2717688,1774438512.2717922,45774,1774438512.2313163,ego_vehicle/odometry,ego_vehicle,-18.801668840909063,4.703173108365187,-1.3987958431243896,0.06784042326361422,-0.01707792617491369,-0.9973316777342252,0.020869738781630252,0.03724381700158119,0.13501581549644473,-3.097229242324829,0.0,0.0,0.0,-0.02174662984907627,0.0034070066176354885,-0.0022445714566856623,-0.1993289440870285,0.04066707566380501,9.783465385437012,0.0,0.0,0.0,0.0,0.0,0.0,0.0,0.0,0.0,0.0,0.0,1,0,False,False,True,1,0.0,0.0,2.218949471578691,0.4775941951636078,0.7995956420898438,0.0,0.0,0.0,0.0,0.0,0.0,0.0,0.0025,0.0454,0.15349259999999984,0.0,0.0,0.0,-0.0,-0.001,0.004,0.1,-0.02,10.01,0.0,0.0,0.0,0.014735419303178787,-0.0073593962006270885
9,2026-03-25 19:35:12.281576,1774438512.281608,1774438512.281635,45775,1774438512.2313163,ego_vehicle/odometry,ego_vehicle,-18.801668840909063,4.703173108365187,-1.3987958431243896,0.06784042326361422,-0.01707792617491369,-0.9973316777342252,0.020869738781630252,0.03724381700158119,0.13501581549644473,-3.097229242324829,-0.00040435791015625,0.0,0.0,-0.018546879291534424,0.0025988875422626734,-0.0006547655793838203,-0.21015748381614685,0.07249082624912262,9.771415710449219,0.0,0.0,0.0,0.0,0.0,0.0,0.0,-0.091552734375,-0.091552734375,-0.091552734375,-0.091552734375,1,0,False,False,True,1,0.0,0.0,2.218949471578691,0.4775941951636078,0.7995956420898438,0.0,0.0,0.0,0.0,0.0,0.0,0.0,0.0025,0.0456,0.15349259999999987,0.0,0.0,0.0,-0.002,0.001,-0.0,0.14,-0.04,10.01,0.0,0.0,0.0,0.014735419303178787,-0.0073593962006270885
10,2026-03-25 19:35:12.296634,1774438512.2966638,1774438512.2966917,45776,1774438512.2313163,ego_vehicle/odometry,ego_vehicle,-18.801668840909063,4.703173108365187,-1.3987958431243896,0.06784042326361422,-0.01707792617491369,-0.9973316777342252,0.020869738781630252,0.03724381700158119,0.13501581549644473,-3.097229242324829,-0.00040435791015625,0.0,0.0,-0.018546879291534424,0.0025988875422626734,-0.0006547655793838203,-0.21015748381614685,0.07249082624912262,9.771415710449219,0.0,0.0,0.0,0.0,0.0,0.0,0.0,-0.091552734375,-0.091552734375,-0.091552734375,-0.091552734375,1,0,False,False,True,1,0.0,0.0,2.218949471578691,0.4775941951636078,0.7995956420898438,0.0,0.0,0.0,0.0,0.0,0.0,0.0,0.0025,0.0456,0.15349259999999987,0.0,0.0,0.0,-0.002,0.001,-0.0,0.14,-0.04,10.01,0.0,0.0,0.0,0.01499125175178051,-0.003265456994995475
11,2026-03-25 19:35:12.303250,1774438512.3032799,1774438512.303308,45777,1774438512.2906637,ego_vehicle/odometry,ego_vehicle,-18.800082145430284,4.7055435855222125,-1.4004995822906494,0.06789977379287705,-0.017108460738155085,-0.9973255254402508,0.02094558653690236,0.03731859847903252,0.13513053953647614,-3.09706974029541,-0.00040435791015625,0.0,0.0,-0.01855209842324257,0.0028744968585669994,0.00015395708032883704,-0.18186379969120026,0.05322495475411415,9.725808143615723,0.0,0.0,0.0,0.0,0.0,0.0,0.0,-0.091552734375,-0.091552734375,-0.091552734375,-0.091552734375,1,0,False,False,True,1,0.0,0.0,2.221728932439399,0.4775941951636078,0.8004043579101563,0.0,0.0,0.0,0.0,0.0,0.0,0.0,0.0025000000000000014,0.04530000000000001,0.15339260000000013,0.0,0.0,0.0,-0.003,0.0,-0.0,0.14,0.07,10.040000000000001,0.0,0.0,0.0,0.01499125175178051,-0.003265456994995475
12,2026-03-25 19:35:12.312316,1774438512.3123572,1774438512.3123882,45778,1774438512.2906637,ego_vehicle/odometry,ego_vehicle,-18.800082145430284,4.7055435855222125,-1.4004995822906494,0.06789977379287705,-0.017108460738155085,-0.9973255254402508,0.02094558653690236,0.03731859847903252,0.13513053953647614,-3.09706974029541,0.0,0.0,0.0,-0.016156606376171112,0.001815117197111249,0.002289838157594204,-0.18487444519996643,0.0669885128736496,9.748055458068848,0.0,0.0,0.0,0.0,0.0,0.0,0.0,0.0,0.0,0.0,0.0,1,0,False,False,True,1,0.0,0.0,2.221728932439399,0.4775941951636078,0.8004043579101563,0.0,0.0,0.0,0.0,0.0,0.0,0.0,0.0025000000000000014,0.04530000000000001,0.15339260000000013,0.0,0.0,0.0,-0.003,0.0,-0.0,0.14,0.07,10.040000000000001,0.0,0.0,0.0,0.01542618777602911,0.0017434419132769108
13,2026-03-25 19:35:12.329046,1774438512.32908,1774438512.3291073,45779,1774438512.2906637,ego_vehicle/odometry,ego_vehicle,-18.800082145430284,4.7055435855222125,-1.4004995822906494,0.06789977379287705,-0.017108460738155085,-0.9973255254402508,0.02094558653690236,0.03731859847903252,0.13513053953647614,-3.09706974029541,0.0,0.0,0.0,-0.02042149379849434,0.002873428165912628,0.0020193634554743767,-0.17596974968910217,0.1833578646183014,9.786466598510742,0.0,0.0,0.0,0.0,0.0,0.0,0.0,0.0,0.0,0.0,0.0,1,0,False,False,True,1,0.0,0.0,2.221728932439399,0.4775941951636078,0.8004043579101563,0.0,0.0,0.0,0.0,0.0,0.0,0.0,0.0025000000000000014,0.04530000000000001,0.15339260000000013,0.0,0.0,0.0,-0.003,0.0,-0.0,0.14,0.07,10.040000000000001,0.0,0.0,0.0,0.01542618777602911,0.0017434419132769108
14,2026-03-25 19:35:12.332148,1774438512.3321867,1774438512.3322158,45780,1774438512.2906637,ego_vehicle/odometry,ego_vehicle,-18.800082145430284,4.7055435855222125,-1.4004995822906494,0.06789977379287705,-0.017108460738155085,-0.9973255254402508,0.02094558653690236,0.03731859847903252,0.13513053953647614,-3.09706974029541,0.0,0.0,0.0,-0.019623108208179474,0.002869404386729002,0.003082264680415392,-0.17592255771160126,0.13180294632911682,9.745607376098633,0.0,0.0,0.0,0.0,0.0,0.0,0.0,0.0,0.0,0.0,0.0,1,0,False,False,True,1,0.0,0.0,2.221728932439399,0.4775941951636078,0.8004043579101563,0.0,0.0,0.0,0.0,0.0,0.0,0.0,0.0025000000000000014,0.04530000000000001,0.15339260000000013,0.0,0.0,0.0,-0.003,0.0,0.001,0.18,0.07,9.89,0.0,0.0,0.0,0.01575104333460331,0.004623629618436098
15,2026-03-25 19:35:12.341930,1774438512.3419626,1774438512.3419895,45781,1774438512.3203387,ego_vehicle/odometry,ego_vehicle,-18.80091124777448,4.706290187877297,-1.4006006717681885,0.06791560527744119,-0.01704248758659276,-0.997324464764088,0.020998479937478904,0.037193756550550475,0.1351632326841355,-3.0969715118408203,0.0,0.0,0.0,-0.020420905202627182,0.003662100527435541,0.0020119668915867805,-0.16154243052005768,0.12524646520614624,9.755195617675781,0.0,0.0,0.0,0.0,0.0,0.0,0.0,0.0,0.0,0.0,0.0,1,0,False,False,True,1,0.0,0.0,2.221728932439399,0.4775941951636078,0.8004043579101563,0.0,0.0,0.0,0.0,0.0,0.0,0.0,0.0025000000000000014,0.04530000000000001,0.15339260000000013,0.0,0.0,0.0,-0.003,0.0,0.001,0.18,0.07,9.89,0.0,0.0,0.0,0.01575104333460331,0.004623629618436098
16,2026-03-25 19:35:12.352095,1774438512.3521318,1774438512.3521562,45782,1774438512.3203387,ego_vehicle/odometry,ego_vehicle,-18.80091124777448,4.706290187877297,-1.4006006717681885,0.06791560527744119,-0.01704248758659276,-0.997324464764088,0.020998479937478904,0.037193756550550475,0.1351632326841355,-3.0969715118408203,0.0,0.0,0.0,-0.022812440991401672,0.002607315545901656,-0.0011804928071796894,-0.16215896606445312,0.09764419496059418,9.800873756408691,0.0,0.0,0.0,0.0,0.0,0.0,0.0,0.0,0.0,0.0,0.0,1,0,False,False,True,1,0.0,0.0,2.2220221682290373,0.4778519256476166,0.8,0.0,0.0,0.0,0.0,0.0,0.0,0.0,0.0025000000000000014,0.04530000000000001,0.15339260000000013,0.0,0.0,0.0,-0.002,0.0,0.004,0.12,0.03,10.01,0.0,0.0,0.0,0.015748856589198112,0.003676959779113531
17,2026-03-25 19:35:12.362098,1774438512.3621356,1774438512.3621678,45783,1774438512.3203387,ego_vehicle/odometry,ego_vehicle,-18.80091124777448,4.706290187877297,-1.4006006717681885,0.06791560527744119,-0.01704248758659276,-0.997324464764088,0.020998479937478904,0.037193756550550475,0.1351632326841355,-3.0969715118408203,0.0,0.0,0.0,-0.022014491260051727,0.0028764582239091396,-0.0011773940641433,-0.20054848492145538,0.13058555126190186,9.778665542602539,0.0,0.0,0.0,0.0,0.0,0.0,0.0,0.0,0.0,0.0,0.0,1,0,False,False,True,1,0.0,0.0,2.2220221682290373,0.4778519256476166,0.8,0.0,0.0,0.0,0.0,0.0,0.0,0.0,0.0024999999999999996,0.0453,0.15349259999999987,0.0,0.0,0.0,-0.002,-0.001,0.004,0.13,-0.02,10.01,0.0,0.0,0.0,0.015748856589198112,0.003676959779113531
18,2026-03-25 19:35:12.372021,1774438512.3720505,1774438512.3720763,45784,1774438512.3203387,ego_vehicle/odometry,ego_vehicle,-18.80091124777448,4.706290187877297,-1.4006006717681885,0.06791560527744119,-0.01704248758659276,-0.997324464764088,0.020998479937478904,0.037193756550550475,0.1351632326841355,-3.0969715118408203,0.00040435791015625,0.0,0.0,-0.01988137885928154,0.0036698528565466404,-0.0019804646726697683,-0.1944778859615326,0.05564277246594429,9.724594116210938,0.0,0.0,0.0,0.0,0.0,0.0,0.0,0.091552734375,0.091552734375,0.091552734375,0.091552734375,1,0,False,False,True,1,0.0,0.0,2.2220221682290373,0.4778519256476166,0.8,0.0,0.0,0.0,0.0,0.0,0.0,0.0,0.0024999999999999996,0.0453,0.15349259999999987,0.0,0.0,0.0,-0.002,-0.001,0.004,0.13,-0.02,10.01,0.0,0.0,0.0,0.015746355056762695,0.0029165148735046387
19,2026-03-25 19:35:12.381570,1774438512.381603,1774438512.381632,45785,1774438512.3994656,ego_vehicle/odometry,ego_vehicle,-18.803218459990234,4.705965513997996,-1.3999301195144653,0.0678576970851034,-0.017029671586521553,-0.9973320916010632,0.02083320173689139,0.03714254125952721,0.13505393266677856,-3.09730863571167,0.00040435791015625,0.0,0.0,-0.017213888466358185,0.0026075905188918114,-0.001980131957679987,-0.20707371830940247,0.0412401519715786,9.7282075881958,0.0,0.0,0.0,0.0,0.0,0.0,0.0,0.0,0.0,0.0,0.0,1,0,False,False,True,1,0.0,0.0,2.2220221682290373,0.4778519256476166,0.8,0.0,0.0,0.0,0.0,0.0,0.0,0.0,0.0024999999999999996,0.0453,0.15349259999999987,0.0,0.0,0.0,-0.002,-0.001,0.004,0.13,-0.02,10.01,0.0,0.0,0.0,0.015746355056762695,0.0029165148735046387
20,2026-03-25 19:35:12.391771,1774438512.391802,1774438512.3918307,45786,1774438512.3994656,ego_vehicle/odometry,ego_vehicle,-18.803218459990234,4.705965513997996,-1.3999301195144653,0.0678576970851034,-0.017029671586521553,-0.9973320916010632,0.02083320173689139,0.03714254125952721,0.13505393266677856,-3.09730863571167,0.0,0.0,0.0,-0.016949936747550964,0.0018076179549098015,0.0004168007289990783,-0.19028475880622864,0.02567078173160553,9.743816375732422,0.0,0.0,0.0,0.0,0.0,0.0,0.0,0.0,0.0,0.0,0.0,1,0,False,False,True,1,0.0,0.0,2.2220221682290373,0.4778519256476166,0.8,0.0,0.0,0.0,0.0,0.0,0.0,0.0,0.0025,0.0455,0.1534925999999999,0.0,0.0,0.0,-0.002,-0.001,-0.0,0.12,0.0,10.03,0.0,0.0,0.0,0.015743788331747055,0.002307755872607231
21,2026-03-25 19:35:12.402148,1774438512.4021876,1774438512.4022188,45787,1774438512.3994656,ego_vehicle/odometry,ego_vehicle,-18.803218459990234,4.705965513997996,-1.3999301195144653,0.0678576970851034,-0.017029671586521553,-0.9973320916010632,0.02083320173689139,0.03714254125952721,0.13505393266677856,-3.09730863571167,-0.00040435791015625,0.0,0.0,-0.01668498106300831,0.002605762332677841,0.0001512122107669711,-0.20055745542049408,0.11081787943840027,9.787066459655762,0.0,0.0,0.0,0.0,0.0,0.0,0.0,-0.091552734375,-0.091552734375,-0.091552734375,-0.091552734375,1,0,False,False,True,1,0.0,0.0,2.220829455157518,0.477514801776767,0.8,0.0,0.0,0.0,0.0,0.0,0.0,0.0,0.0025,0.0455,0.1534925999999999,0.0,0.0,0.0,-0.002,-0.001,-0.0,0.12,0.0,10.03,0.0,0.0,0.0,0.015743788331747055,0.002307755872607231
22,2026-03-25 19:35:12.411671,1774438512.4117038,1774438512.4117365,45788,1774438512.3994656,ego_vehicle/odometry,ego_vehicle,-18.803218459990234,4.705965513997996,-1.3999301195144653,0.0678576970851034,-0.017029671586521553,-0.9973320916010632,0.02083320173689139,0.03714254125952721,0.13505393266677856,-3.09730863571167,-0.00040435791015625,0.0,0.0,-0.018291467800736427,0.0036674351431429386,0.0025499481707811356,-0.1933121681213379,0.09222802519798279,9.74441146850586,0.0,0.0,0.0,0.0,0.0,0.0,0.0,-0.091552734375,-0.091552734375,-0.091552734375,-0.091552734375,1,0,False,False,True,1,0.0,0.0,2.220829455157518,0.477514801776767,0.8,0.0,0.0,0.0,0.0,0.0,0.0,0.0,0.0024999999999999996,0.0453,0.15349259999999987,0.0,0.0,0.0,-0.003,-0.001,-0.0,0.18,0.01,9.89,0.0,0.0,0.0,0.015986058861017227,0.004257984459400177
23,2026-03-25 19:35:12.421828,1774438512.4218647,1774438512.4218953,45789,1774438512.3994656,ego_vehicle/odometry,ego_vehicle,-18.803218459990234,4.705965513997996,-1.3999301195144653,0.0678576970851034,-0.017029671586521553,-0.9973320916010632,0.02083320173689139,0.03714254125952721,0.13505393266677856,-3.09730863571167,-0.00040435791015625,0.0,0.0,-0.018556900322437286,0.0033981027081608772,0.0028133036103099585,-0.1573065221309662,0.12102168798446655,9.731782913208008,0.0,0.0,0.0,0.0,0.0,0.0,0.0,-0.091552734375,-0.091552734375,-0.091552734375,-0.091552734375,1,0,False,False,True,1,0.0,0.0,2.220829455157518,0.477514801776767,0.8,0.0,0.0,0.0,0.0,0.0,0.0,0.0,0.0024999999999999996,0.0453,0.15349259999999987,0.0,0.0,0.0,-0.003,-0.001,-0.0,0.18,0.01,9.89,0.0,0.0,0.0,0.015986058861017227,0.004257984459400177
24,2026-03-25 19:35:12.431629,1774438512.43166,1774438512.4316895,45790,1774438512.4588044,ego_vehicle/odometry,ego_vehicle,-18.805003801642044,4.707314961753119,-1.4001374244689941,0.06788417219104388,-0.016977536636621618,-0.9973310676239987,0.020838521244655215,0.03703960776329039,0.1351090967655182,-3.097303867340088,0.0,0.0,0.0,-0.022820869460701942,0.003934195265173912,0.0014844555407762527,-0.1675712764263153,0.11624152213335037,9.799062728881836,0.0,0.0,0.0,0.0,0.0,0.0,0.0,0.0,0.0,0.0,0.0,1,0,False,False,True,1,0.0,0.0,2.220829455157518,0.477514801776767,0.8,0.0,0.0,0.0,0.0,0.0,0.0,0.0,0.0024999999999999996,0.0453,0.15349259999999987,0.0,0.0,0.0,-0.001,-0.001,0.002,0.13,0.08,10.040000000000001,0.0,0.0,0.0,0.01567782647907734,0.00028459986788220704
25,2026-03-25 19:35:12.441731,1774438512.441767,1774438512.441795,45791,1774438512.468695,ego_vehicle/odometry,ego_vehicle,-18.805314734304424,4.707564656759458,-1.4001688957214355,0.06787630386003234,-0.01700077535837362,-0.9973312093598108,0.020838422406984424,0.037085995078086846,0.13509230315685272,-3.0973012447357178,0.0,0.0,0.0,-0.021486621350049973,0.003934505861252546,0.0006848626653663814,-0.18737763166427612,0.16419275104999542,9.786453247070312,0.0,0.0,0.0,0.0,0.0,0.0,0.0,0.0,0.0,0.0,0.0,1,0,False,False,True,1,0.0,0.0,2.220829455157518,0.477514801776767,0.8,0.0,0.0,0.0,0.0,0.0,0.0,0.0,0.0024999999999999996,0.0453,0.15349259999999987,0.0,0.0,0.0,-0.001,-0.001,0.002,0.13,0.08,10.040000000000001,0.0,0.0,0.0,0.01567782647907734,0.00028459986788220704
26,2026-03-25 19:35:12.451565,1774438512.4516017,1774438512.4516318,45792,1774438512.468695,ego_vehicle/odometry,ego_vehicle,-18.805314734304424,4.707564656759458,-1.4001688957214355,0.06787630386003234,-0.01700077535837362,-0.9973312093598108,0.020838422406984424,0.037085995078086846,0.13509230315685272,-3.0973012447357178,0.00040435791015625,0.0,0.0,-0.02095411904156208,0.004205976612865925,-0.0001098296488635242,-0.18548917770385742,0.11017774045467377,9.734822273254395,0.0,0.0,0.0,0.0,0.0,0.0,0.0,0.091552734375,0.091552734375,0.091552734375,0.091552734375,1,0,False,False,True,1,0.0,0.0,2.221374028720087,0.4775221927527191,0.8,0.0,0.0,0.0,0.0,0.0,0.0,0.0,0.0024999999999999996,0.0453,0.15349259999999987,0.0,0.0,0.0,-0.001,-0.001,0.004,0.17,0.04,10.01,0.0,0.0,0.0,0.015446296893060207,-0.0020752009004354477
27,2026-03-25 19:35:12.468032,1774438512.4680696,1774438512.4680984,45793,1774438512.468695,ego_vehicle/odometry,ego_vehicle,-18.805314734304424,4.707564656759458,-1.4001688957214355,0.06787630386003234,-0.01700077535837362,-0.9973312093598108,0.020838422406984424,0.037085995078086846,0.13509230315685272,-3.0973012447357178,0.0,0.0,0.0,-0.01934470422565937,0.00313616287894547,-0.0027824395801872015,-0.19030147790908813,0.03648000955581665,9.749212265014648,0.0,0.0,0.0,0.0,0.0,0.0,0.0,0.0,0.0,0.0,0.0,1,0,False,False,True,1,0.0,0.0,2.221374028720087,0.4775221927527191,0.8,0.0,0.0,0.0,0.0,0.0,0.0,0.0,0.0025,0.04529999999999999,0.15359260000000008,0.0,0.0,0.0,-0.002,-0.001,0.004,0.13,-0.01,10.01,0.0,0.0,0.0,0.015517114661633968,-0.0009483045432716608
28,2026-03-25 19:35:12.471517,1774438512.4715455,1774438512.4715693,45794,1774438512.468695,ego_vehicle/odometry,ego_vehicle,-18.805314734304424,4.707564656759458,-1.4001688957214355,0.06787630386003234,-0.01700077535837362,-0.9973312093598108,0.020838422406984424,0.037085995078086846,0.13509230315685272,-3.0973012447357178,0.0,0.0,0.0,-0.01934470422565937,0.00313616287894547,-0.0027824395801872015,-0.19030147790908813,0.03648000955581665,9.749212265014648,0.0,0.0,0.0,0.0,0.0,0.0,0.0,0.0,0.0,0.0,0.0,1,0,False,False,True,1,0.0,0.0,2.221374028720087,0.4775221927527191,0.8,0.0,0.0,0.0,0.0,0.0,0.0,0.0,0.0025,0.04529999999999999,0.15359260000000008,0.0,0.0,0.0,-0.002,-0.001,0.004,0.13,-0.01,10.01,0.0,0.0,0.0,0.015517114661633968,-0.0009483045432716608
29,2026-03-25 19:35:12.481866,1774438512.4819074,1774438512.48194,45795,1774438512.5082545,ego_vehicle/odometry,ego_vehicle,-18.806700718176128,4.710712410917715,-1.4004273414611816,0.06778458247364676,-0.017138971777957004,-0.9973372389437478,0.020734942520522014,0.03734561428427697,0.13490626215934756,-3.0974948406219482,0.0,0.0,0.0,-0.0185491144657135,0.0031398243736475706,-0.001446071546524763,-0.19994595646858215,0.08623018860816956,9.787071228027344,0.0,0.0,0.0,0.0,0.0,0.0,0.0,0.0,0.0,0.0,0.0,1,0,False,False,True,1,0.0,0.0,2.221374028720087,0.4775221927527191,0.8,0.0,0.0,0.0,0.0,0.0,0.0,0.0,0.0025000000000000005,0.0455,0.1535926000000001,0.0,0.0,0.0,-0.004,0.0,0.001,0.16,-0.06,9.870000000000001,0.0,0.0,0.0,0.015517114661633968,-0.0009483045432716608
30,2026-03-25 19:35:12.493472,1774438512.4935017,1774438512.4935298,45796,1774438512.5082545,ego_vehicle/odometry,ego_vehicle,-18.806700718176128,4.710712410917715,-1.4004273414611816,0.06778458247364676,-0.017138971777957004,-0.9973372389437478,0.020734942520522014,0.03734561428427697,0.13490626215934756,-3.0974948406219482,0.0,0.0,0.0,-0.017215769737958908,0.0023303888738155365,0.0006758147501386702,-0.20710450410842896,0.040707193315029144,9.72515869140625,0.0,0.0,0.0,0.0,0.0,0.0,0.0,0.0,0.0,0.0,0.0,1,0,False,False,True,1,0.0,0.0,2.221374028720087,0.4775221927527191,0.8,0.0,0.0,0.0,0.0,0.0,0.0,0.0,0.0025000000000000005,0.0455,0.1535926000000001,0.0,0.0,0.0,-0.004,0.0,0.001,0.16,-0.06,9.870000000000001,0.0,0.0,0.0,0.016059497371315956,0.004659950267523527
31,2026-03-25 19:35:12.501885,1774438512.5019205,1774438512.5019476,45797,1774438512.5082545,ego_vehicle/odometry,ego_vehicle,-18.806700718176128,4.710712410917715,-1.4004273414611816,0.06778458247364676,-0.017138971777957004,-0.9973372389437478,0.020734942520522014,0.03734561428427697,0.13490626215934756,-3.0974948406219482,-0.00040435791015625,0.0,0.0,-0.01642002910375595,0.0018063667230308056,0.002015415346249938,-0.18246981501579285,0.05444261059165001,9.720989227294922,0.0,0.0,0.0,0.0,0.0,0.0,0.0,-0.091552734375,-0.091552734375,-0.091552734375,-0.091552734375,1,0,False,False,True,1,0.0,0.0,2.2236754800202085,0.47732859686648865,0.8,0.0,0.0,0.0,0.0,0.0,0.0,0.0,0.0025000000000000005,0.0455,0.1535926000000001,0.0,0.0,0.0,-0.004,0.0,0.001,0.16,-0.06,9.870000000000001,0.0,0.0,0.0,0.016059497371315956,0.004659950267523527
32,2026-03-25 19:35:12.511763,1774438512.5118008,1774438512.5118313,45798,1774438512.5082545,ego_vehicle/odometry,ego_vehicle,-18.806700718176128,4.710712410917715,-1.4004273414611816,0.06778458247364676,-0.017138971777957004,-0.9973372389437478,0.020734942520522014,0.03734561428427697,0.13490626215934756,-3.0974948406219482,-0.00040435791015625,0.0,0.0,-0.019352063536643982,0.0012763432459905744,0.0025498257018625736,-0.18494655191898346,0.08204683661460876,9.787662506103516,0.0,0.0,0.0,0.0,0.0,0.0,0.0,-0.091552734375,-0.091552734375,-0.091552734375,-0.091552734375,1,0,False,False,True,1,0.0,0.0,2.2236754800202085,0.47732859686648865,0.8,0.0,0.0,0.0,0.0,0.0,0.0,0.0,0.002500000000000001,0.04520000000000001,0.1534925999999999,0.0,0.0,0.0,-0.002,0.0,-0.0,0.12,0.03,10.03,0.0,0.0,0.0,0.01597660779953003,0.0028972963336855173
33,2026-03-25 19:35:12.521781,1774438512.521814,1774438512.5218418,45799,1774438512.5082545,ego_vehicle/odometry,ego_vehicle,-18.806700718176128,4.710712410917715,-1.4004273414611816,0.06778458247364676,-0.017138971777957004,-0.9973372389437478,0.020734942520522014,0.03734561428427697,0.13490626215934756,-3.0974948406219482,-0.00040435791015625,0.0,0.0,-0.019624361768364906,0.0036684959195554256,0.002550897654145956,-0.1957716941833496,0.165982186794281,9.780450820922852,0.0,0.0,0.0,0.0,0.0,0.0,0.0,-0.091552734375,-0.091552734375,-0.091552734375,-0.091552734375,1,0,False,False,True,1,0.0,0.0,2.2236754800202085,0.47732859686648865,0.8,0.0,0.0,0.0,0.0,0.0,0.0,0.0,0.002500000000000001,0.04520000000000001,0.1534925999999999,0.0,0.0,0.0,-0.002,0.0,-0.0,0.12,0.03,10.03,0.0,0.0,0.0,0.01597660779953003,0.0028972963336855173
34,2026-03-25 19:35:12.531658,1774438512.5316892,1774438512.5317156,45800,1774438512.5478134,ego_vehicle/odometry,ego_vehicle,-18.807914906012062,4.711554933742153,-1.4005898237228394,0.0678016680414388,-0.017112679487527538,-0.9973356300551415,0.02077813836871705,0.037299398332834244,0.13494004309177401,-3.0974106788635254,0.0,0.0,0.0,-0.01909281313419342,0.003933180123567581,0.0030832700431346893,-0.16930659115314484,0.13299350440502167,9.733596801757812,0.0,0.0,0.0,0.0,0.0,0.0,0.0,0.0,0.0,0.0,0.0,1,0,False,False,True,1,0.0,0.0,2.2236754800202085,0.47732859686648865,0.8,0.0,0.0,0.0,0.0,0.0,0.0,0.0,0.002500000000000001,0.04520000000000001,0.1534925999999999,0.0,0.0,0.0,-0.001,-0.002,0.002,0.17,0.08,10.03,0.0,0.0,0.0,0.015669548884034157,-0.0007083467207849026
35,2026-03-25 19:35:12.541653,1774438512.5416825,1774438512.5417097,45801,1774438512.5478134,ego_vehicle/odometry,ego_vehicle,-18.807914906012062,4.711554933742153,-1.4005898237228394,0.0678016680414388,-0.017112679487527538,-0.9973356300551415,0.02077813836871705,0.037299398332834244,0.13494004309177401,-3.0974106788635254,0.0,0.0,0.0,-0.021488500759005547,0.004472198896110058,0.00015729424194432795,-0.1789136677980423,0.14016054570674896,9.752241134643555,0.0,0.0,0.0,0.0,0.0,0.0,0.0,0.0,0.0,0.0,0.0,1,0,False,False,True,1,0.0,0.0,2.2236754800202085,0.47732859686648865,0.8,0.0,0.0,0.0,0.0,0.0,0.0,0.0,0.002500000000000001,0.04520000000000001,0.1534925999999999,0.0,0.0,0.0,-0.001,-0.002,0.002,0.17,0.08,10.03,0.0,0.0,0.0,0.015669548884034157,-0.0007083467207849026
36,2026-03-25 19:35:12.551552,1774438512.5515833,1774438512.5516105,45802,1774438512.5478134,ego_vehicle/odometry,ego_vehicle,-18.807914906012062,4.711554933742153,-1.4005898237228394,0.0678016680414388,-0.017112679487527538,-0.9973356300551415,0.02077813836871705,0.037299398332834244,0.13494004309177401,-3.0974106788635254,0.00040435791015625,0.0,0.0,-0.023083459585905075,0.0036731469444930553,-0.0006444097962230444,-0.17772486805915833,0.09461908042430878,9.77025032043457,0.0,0.0,0.0,0.0,0.0,0.0,0.0,0.091552734375,0.091552734375,0.091552734375,0.091552734375,1,0,False,False,True,1,0.0,0.0,2.223894082269639,0.4774127586249115,0.8,0.0,0.0,0.0,0.0,0.0,0.0,0.0,0.0025,0.04529999999999999,0.15359260000000008,0.0,0.0,0.0,-0.001,-0.001,0.005,0.15,0.06,10.01,0.0,0.0,0.0,0.015439139679074287,-0.002904246561229229
37,2026-03-25 19:35:12.561551,1774438512.5615833,1774438512.5616112,45803,1774438512.5478134,ego_vehicle/odometry,ego_vehicle,-18.807914906012062,4.711554933742153,-1.4005898237228394,0.0678016680414388,-0.017112679487527538,-0.9973356300551415,0.02077813836871705,0.037299398332834244,0.13494004309177401,-3.0974106788635254,0.0,0.0,0.0,-0.021751195192337036,0.004207479767501354,-0.0014415965415537357,-0.1825440675020218,0.11439285427331924,9.790685653686523,0.0,0.0,0.0,0.0,0.0,0.0,0.0,0.0,0.0,0.0,0.0,1,0,False,False,True,1,0.0,0.0,2.223894082269639,0.4774127586249115,0.8,0.0,0.0,0.0,0.0,0.0,0.0,0.0,0.002500000000000001,0.045200000000000004,0.15359260000000008,0.0,0.0,0.0,-0.001,0.0,0.003,0.15,-0.05,9.88,0.0,0.0,0.0,0.015439139679074287,-0.002904246561229229
38,2026-03-25 19:35:12.571569,1774438512.5716,1774438512.5716305,45804,1774438512.5972588,ego_vehicle/odometry,ego_vehicle,-18.802848735368784,4.704092437797807,-1.401870608329773,0.06780672013469448,-0.01717171814822116,-0.9973345544114421,0.020764570242201633,0.03741668164730073,0.1349480599164963,-3.0974297523498535,0.0,0.0,0.0,-0.0169511865824461,0.0036710556596517563,-0.0014461574610322714,-0.20706401765346527,0.03763854503631592,9.720399856567383,0.0,0.0,0.0,0.0,0.0,0.0,0.0,0.0,0.0,0.0,0.0,1,0,False,False,True,1,0.0,0.0,2.223894082269639,0.4774127586249115,0.8,0.0,0.0,0.0,0.0,0.0,0.0,0.0,0.002500000000000001,0.045200000000000004,0.15359260000000008,0.0,0.0,0.0,-0.001,0.0,0.003,0.15,-0.05,9.88,0.0,0.0,0.0,0.01526623871177435,-0.004055125173181295
39,2026-03-25 19:35:12.581765,1774438512.581803,1774438512.5818279,45805,1774438512.5972588,ego_vehicle/odometry,ego_vehicle,-18.802848735368784,4.704092437797807,-1.401870608329773,0.06780672013469448,-0.01717171814822116,-0.9973345544114421,0.020764570242201633,0.03741668164730073,0.1349480599164963,-3.0974297523498535,0.0,0.0,0.0,-0.01774783805012703,0.003669064724817872,-0.002514416119083762,-0.18546608090400696,0.029262909665703773,9.724594116210938,0.0,0.0,0.0,0.0,0.0,0.0,0.0,0.0,0.0,0.0,0.0,1,0,False,False,True,1,0.0,0.0,2.223894082269639,0.4774127586249115,0.8,0.0,0.0,0.0,0.0,0.0,0.0,0.0,0.0025000000000000005,0.0455,0.1535926000000001,0.0,0.0,0.0,-0.002,0.0,0.001,0.09,-0.03,10.03,0.0,0.0,0.0,0.01526623871177435,-0.004055125173181295
40,2026-03-25 19:35:12.591650,1774438512.5916858,1774438512.591715,45806,1774438512.5972588,ego_vehicle/odometry,ego_vehicle,-18.802848735368784,4.704092437797807,-1.401870608329773,0.06780672013469448,-0.01717171814822116,-0.9973345544114421,0.020764570242201633,0.03741668164730073,0.1349480599164963,-3.0974297523498535,0.0,0.0,0.0,-0.01801350712776184,0.001805000938475132,-0.00038539140950888395,-0.196345716714859,0.025112036615610123,9.791253089904785,0.0,0.0,0.0,0.0,0.0,0.0,0.0,0.0,0.0,0.0,0.0,1,0,False,False,True,1,0.0,0.0,2.223894082269639,0.4774127586249115,0.8,0.0,0.0,0.0,0.0,0.0,0.0,0.0,0.0025000000000000005,0.0455,0.1535926000000001,0.0,0.0,0.0,-0.002,0.0,0.001,0.09,-0.03,10.03,0.0,0.0,0.0,0.015381237491965294,-0.0020941724069416523
41,2026-03-25 19:35:12.602149,1774438512.6021821,1774438512.6022074,45807,1774438512.5972588,ego_vehicle/odometry,ego_vehicle,-18.802848735368784,4.704092437797807,-1.401870608329773,0.06780672013469448,-0.01717171814822116,-0.9973345544114421,0.020764570242201633,0.03741668164730073,0.1349480599164963,-3.0974297523498535,0.0,0.0,0.0,-0.017220843583345413,0.002869036979973316,0.0014821977820247412,-0.2161630392074585,0.10843314230442047,9.77984619140625,0.0,0.0,0.0,0.0,0.0,0.0,0.0,0.0,0.0,0.0,0.0,1,0,False,False,True,1,0.0,0.0,2.219327635271264,0.4773936851385834,0.8,0.0,0.0,0.0,0.0,0.0,0.0,0.0,0.0025000000000000005,0.0455,0.1535926000000001,0.0,0.0,0.0,-0.002,0.0,0.001,0.09,-0.03,10.03,0.0,0.0,0.0,0.015381237491965294,-0.0020941724069416523
42,2026-03-25 19:35:12.612043,1774438512.6120746,1774438512.6121013,45808,1774438512.5972588,ego_vehicle/odometry,ego_vehicle,-18.802848735368784,4.704092437797807,-1.401870608329773,0.06780672013469448,-0.01717171814822116,-0.9973345544114421,0.020764570242201633,0.03741668164730073,0.1349480599164963,-3.0974297523498535,-0.00040435791015625,0.0,0.0,-0.017486851662397385,0.0018069383222609758,0.002282549859955907,-0.18489009141921997,0.09820965677499771,9.726995468139648,0.0,0.0,0.0,0.0,0.0,0.0,0.0,-0.091552734375,-0.091552734375,-0.091552734375,-0.091552734375,1,0,False,False,True,1,0.0,0.0,2.219327635271264,0.4773936851385834,0.8,0.0,0.0,0.0,0.0,0.0,0.0,0.0,0.0026000000000000003,0.0453,0.15349259999999987,0.0,0.0,0.0,-0.004,0.0,-0.0,0.17,0.04,10.03,0.0,0.0,0.0,0.016067057847976685,0.005185242276638746
43,2026-03-25 19:35:12.621749,1774438512.62179,1774438512.6218188,45809,1774438512.6467018,ego_vehicle/odometry,ego_vehicle,-18.804382436822667,4.705072100950162,-1.402111291885376,0.06783954511622886,-0.01709299502484645,-0.9973319384774038,0.02084778483215865,0.03727112710475921,0.13501420617103574,-3.09727144241333,0.0,0.0,0.0,-0.01908661052584648,0.0028654788620769978,0.0020122816786170006,-0.18194741010665894,0.11864359676837921,9.760007858276367,0.0,0.0,0.0,0.0,0.0,0.0,0.0,0.0,0.0,0.0,0.0,1,0,False,False,True,1,0.0,0.0,2.219327635271264,0.4773936851385834,0.8,0.0,0.0,0.0,0.0,0.0,0.0,0.0,0.0026000000000000003,0.0453,0.15349259999999987,0.0,0.0,0.0,-0.0,-0.001,0.002,0.15,0.12,10.03,0.0,0.0,0.0,0.016067057847976685,0.005185242276638746
44,2026-03-25 19:35:12.631995,1774438512.6320257,1774438512.6320527,45810,1774438512.6565914,ego_vehicle/odometry,ego_vehicle,-18.804701021090228,4.70528319549566,-1.4021577835083008,0.06784889428255632,-0.017115858011984196,-0.9973309023837317,0.020848167775595394,0.0373176820576191,0.13503190875053409,-3.0972671508789062,0.0,0.0,0.0,-0.02255253866314888,0.0036683795042335987,0.0009510734817013144,-0.1639367789030075,0.1276164948940277,9.763626098632812,0.0,0.0,0.0,0.0,0.0,0.0,0.0,0.0,0.0,0.0,0.0,1,0,False,False,True,1,0.0,0.0,2.219327635271264,0.4773936851385834,0.8,0.0,0.0,0.0,0.0,0.0,0.0,0.0,0.0026000000000000003,0.0453,0.15349259999999987,0.0,0.0,0.0,-0.0,-0.001,0.002,0.15,0.12,10.03,0.0,0.0,0.0,0.015607892535626888,-0.0004387014778330922
45,2026-03-25 19:35:12.641835,1774438512.6418712,1774438512.6418982,45811,1774438512.6565914,ego_vehicle/odometry,ego_vehicle,-18.804701021090228,4.70528319549566,-1.4021577835083008,0.06784889428255632,-0.017115858011984196,-0.9973309023837317,0.020848167775595394,0.0373176820576191,0.13503190875053409,-3.0972671508789062,0.0,0.0,0.0,-0.023350004106760025,0.0028744712471961975,0.00042057159589603543,-0.18736538290977478,0.1641751229763031,9.782258987426758,0.0,0.0,0.0,0.0,0.0,0.0,0.0,0.0,0.0,0.0,0.0,1,0,False,False,True,1,0.0,0.0,2.219327635271264,0.4773936851385834,0.8,0.0,0.0,0.0,0.0,0.0,0.0,0.0,0.0026000000000000003,0.0453,0.15349259999999987,0.0,0.0,0.0,-0.0,-0.001,0.002,0.15,0.12,10.03,0.0,0.0,0.0,0.015607892535626888,-0.0004387014778330922
46,2026-03-25 19:35:12.651529,1774438512.651558,1774438512.6515858,45812,1774438512.6565914,ego_vehicle/odometry,ego_vehicle,-18.804701021090228,4.70528319549566,-1.4021577835083008,0.06784889428255632,-0.017115858011984196,-0.9973309023837317,0.020848167775595394,0.0373176820576191,0.13503190875053409,-3.0972671508789062,0.0,0.0,0.0,-0.020949631929397583,0.00393492029979825,-0.001181123312562704,-0.18789374828338623,0.09222234785556793,9.727592468261719,0.0,0.0,0.0,0.0,0.0,0.0,0.0,0.0,0.0,0.0,0.0,1,0,False,False,True,1,0.0,0.0,2.2195666339634954,0.47755628660953064,0.8,0.0,0.0,0.0,0.0,0.0,0.0,0.0,0.0024999999999999996,0.0453,0.15349259999999987,0.0,0.0,0.0,-0.001,0.0,0.003,0.17,0.02,9.88,0.0,0.0,0.0,0.015402497723698616,-0.0024059663992375135
47,2026-03-25 19:35:12.668203,1774438512.6682324,1774438512.668263,45813,1774438512.6565914,ego_vehicle/odometry,ego_vehicle,-18.804701021090228,4.70528319549566,-1.4021577835083008,0.06784889428255632,-0.017115858011984196,-0.9973309023837317,0.020848167775595394,0.0373176820576191,0.13503190875053409,-3.0972671508789062,0.0,0.0,0.0,-0.02041858434677124,0.003939806949347258,-0.0009101499454118311,-0.16868028044700623,0.07900621742010117,9.740828514099121,0.0,0.0,0.0,0.0,0.0,0.0,0.0,0.0,0.0,0.0,0.0,1,0,False,False,True,1,0.0,0.0,2.2195666339634954,0.47755628660953064,0.8,0.0,0.0,0.0,0.0,0.0,0.0,0.0,0.0024999999999999996,0.0453,0.15349259999999987,0.0,0.0,0.0,-0.001,0.0,0.003,0.17,0.02,9.88,0.0,0.0,0.0,0.015402497723698616,-0.0024059663992375135
48,2026-03-25 19:35:12.671429,1774438512.6714528,1774438512.671479,45814,1774438512.6961472,ego_vehicle/odometry,ego_vehicle,-18.806202531386962,4.708017073169407,-1.4011690616607666,0.06783200407706144,-0.01711173829523956,-0.9973347534807169,0.02072189988786198,0.03729135915637016,0.1350029706954956,-3.097522735595703,0.0,0.0,0.0,-0.021744687110185623,0.002875144127756357,-0.0025116747710853815,-0.19992080330848694,0.04605930298566818,9.77325439453125,0.0,0.0,0.0,0.0,0.0,0.0,0.0,0.0,0.0,0.0,0.0,1,0,False,False,True,1,0.0,0.0,2.2195666339634954,0.47755628660953064,0.8,0.0,0.0,0.0,0.0,0.0,0.0,0.0,0.0025,0.04529999999999999,0.15359260000000008,0.0,0.0,0.0,-0.002,0.0,0.003,0.1,-0.01,10.02,0.0,0.0,0.0,0.015491185709834099,-0.001039419905282557
49,2026-03-25 19:35:12.683253,1774438512.6832976,1774438512.6833467,45815,1774438512.6961472,ego_vehicle/odometry,ego_vehicle,-18.806202531386962,4.708017073169407,-1.4011690616607666,0.06783200407706144,-0.01711173829523956,-0.9973347534807169,0.02072189988786198,0.03729135915637016,0.1350029706954956,-3.097522735595703,0.0,0.0,0.0,-0.018017921596765518,0.0036713271401822567,-0.0011792908189818263,-0.22452199459075928,0.0652356967329979,9.761842727661133,0.0,0.0,0.0,0.0,0.0,0.0,0.0,0.0,0.0,0.0,0.0,1,0,False,False,True,1,0.0,0.0,2.2195666339634954,0.47755628660953064,0.8,0.0,0.0,0.0,0.0,0.0,0.0,0.0,0.0026000000000000003,0.0455,0.15359260000000005,0.0,0.0,0.0,-0.004,0.0,0.001,0.15,-0.02,10.02,0.0,0.0,0.0,0.015491185709834099,-0.001039419905282557
50,2026-03-25 19:35:12.692875,1774438512.6929078,1774438512.692935,45816,1774438512.6961472,ego_vehicle/odometry,ego_vehicle,-18.806202531386962,4.708017073169407,-1.4011690616607666,0.06783200407706144,-0.01711173829523956,-0.9973347534807169,0.02072189988786198,0.03729135915637016,0.1350029706954956,-3.097522735595703,0.0,0.0,0.0,-0.01589024066925049,0.003403067123144865,0.0014846050180494785,-0.18604274094104767,0.035240545868873596,9.704178810119629,0.0,0.0,0.0,0.0,0.0,0.0,0.0,0.0,0.0,0.0,0.0,1,0,False,False,True,1,0.0,0.0,2.2195666339634954,0.47755628660953064,0.8,0.0,0.0,0.0,0.0,0.0,0.0,0.0,0.0026000000000000003,0.0455,0.15359260000000005,0.0,0.0,0.0,-0.004,0.0,0.001,0.15,-0.02,10.02,0.0,0.0,0.0,0.016155723482370377,0.005827730987221003
51,2026-03-25 19:35:12.702229,1774438512.7022629,1774438512.702293,45817,1774438512.6961472,ego_vehicle/odometry,ego_vehicle,-18.806202531386962,4.708017073169407,-1.4011690616607666,0.06783200407706144,-0.01711173829523956,-0.9973347534807169,0.02072189988786198,0.03729135915637016,0.1350029706954956,-3.097522735595703,0.00040435791015625,0.0,0.0,-0.016154389828443527,0.0031373449601233006,0.0006846856558695436,-0.19270724058151245,0.04725603014230728,9.760639190673828,0.0,0.0,0.0,0.0,0.0,0.0,0.0,0.091552734375,0.091552734375,0.091552734375,0.091552734375,1,0,False,False,True,1,0.0,0.0,2.221461064406052,0.47730070189273377,0.8,0.0,0.0,0.0,0.0,0.0,0.0,0.0,0.0026000000000000007,0.045200000000000004,0.15359260000000008,0.0,0.0,0.0,-0.003,0.0,-0.0,0.14,0.07,10.02,0.0,0.0,0.0,0.016155723482370377,0.005827730987221003
52,2026-03-25 19:35:12.711679,1774438512.7117088,1774438512.7117333,45818,1774438512.6961472,ego_vehicle/odometry,ego_vehicle,-18.806202531386962,4.708017073169407,-1.4011690616607666,0.06783200407706144,-0.01711173829523956,-0.9973347534807169,0.02072189988786198,0.03729135915637016,0.1350029706954956,-3.097522735595703,0.00040435791015625,0.0,0.0,-0.016154389828443527,0.0031373449601233006,0.0006846856558695436,-0.19270724058151245,0.04725603014230728,9.760639190673828,0.0,0.0,0.0,0.0,0.0,0.0,0.0,0.091552734375,0.091552734375,0.091552734375,0.091552734375,1,0,False,False,True,1,0.0,0.0,2.221461064406052,0.47730070189273377,0.8,0.0,0.0,0.0,0.0,0.0,0.0,0.0,0.0026000000000000007,0.045200000000000004,0.15359260000000008,0.0,0.0,0.0,-0.003,0.0,-0.0,0.14,0.07,10.02,0.0,0.0,0.0,0.016413597390055656,0.007239451631903648
53,2026-03-25 19:35:12.721722,1774438512.7217531,1774438512.7217808,45819,1774438512.7357001,ego_vehicle/odometry,ego_vehicle,-18.807431746883985,4.708739938826974,-1.4014009237289429,0.06784780932820514,-0.01701599448496667,-0.9973344996932565,0.020761175849479816,0.03710470348596573,0.13503740727901456,-3.0974559783935547,0.00040435791015625,0.0,0.0,-0.018828164786100388,0.004728348460048437,0.003348275786265731,-0.19518758356571198,0.16240772604942322,9.78764533996582,0.0,0.0,0.0,0.0,0.0,0.0,0.0,0.091552734375,0.091552734375,0.091552734375,0.091552734375,1,0,False,False,True,1,0.0,0.0,2.221461064406052,0.47730070189273377,0.8,0.0,0.0,0.0,0.0,0.0,0.0,0.0,0.0026000000000000007,0.045200000000000004,0.15359260000000008,0.0,0.0,0.0,-0.003,0.0,-0.0,0.14,0.07,10.02,0.0,0.0,0.0,0.016413597390055656,0.007239451631903648
54,2026-03-25 19:35:12.731647,1774438512.7316802,1774438512.7317069,45820,1774438512.7357001,ego_vehicle/odometry,ego_vehicle,-18.807431746883985,4.708739938826974,-1.4014009237289429,0.06784780932820514,-0.01701599448496667,-0.9973344996932565,0.020761175849479816,0.03710470348596573,0.13503740727901456,-3.0974559783935547,-0.00040435791015625,0.0,0.0,-0.01989070698618889,0.0026095935609191656,0.0030874768272042274,-0.18190106749534607,0.1155788004398346,9.745633125305176,0.0,0.0,0.0,0.0,0.0,0.0,0.0,-0.091552734375,-0.091552734375,-0.091552734375,-0.091552734375,1,0,False,False,True,1,0.0,0.0,2.221461064406052,0.47730070189273377,0.8,0.0,0.0,0.0,0.0,0.0,0.0,0.0,0.0026000000000000007,0.04530000000000001,0.15359260000000002,0.0,0.0,0.0,-0.002,0.0,0.001,0.18,0.06,9.89,0.0,0.0,0.0,0.01636562868952751,0.005312706809490919
55,2026-03-25 19:35:12.741656,1774438512.741691,1774438512.741722,45821,1774438512.7357001,ego_vehicle/odometry,ego_vehicle,-18.807431746883985,4.708739938826974,-1.4014009237289429,0.06784780932820514,-0.01701599448496667,-0.9973344996932565,0.020761175849479816,0.03710470348596573,0.13503740727901456,-3.0974559783935547,-0.00040435791015625,0.0,0.0,-0.0212196446955204,0.0036632975097745657,0.001479790429584682,-0.1675313264131546,0.12583675980567932,9.744386672973633,0.0,0.0,0.0,0.0,0.0,0.0,0.0,-0.091552734375,-0.091552734375,-0.091552734375,-0.091552734375,1,0,False,False,True,1,0.0,0.0,2.221461064406052,0.47730070189273377,0.8,0.0,0.0,0.0,0.0,0.0,0.0,0.0,0.0026000000000000007,0.045200000000000004,0.15359260000000008,0.0,0.0,0.0,-0.0,0.0,0.005,0.11,0.03,10.02,0.0,0.0,0.0,0.01636562868952751,0.005312706809490919
56,2026-03-25 19:35:12.751950,1774438512.7520015,1774438512.752043,45822,1774438512.7357001,ego_vehicle/odometry,ego_vehicle,-18.807431746883985,4.708739938826974,-1.4014009237289429,0.06784780932820514,-0.01701599448496667,-0.9973344996932565,0.020761175849479816,0.03710470348596573,0.13503740727901456,-3.0974559783935547,0.0,0.0,0.0,-0.021749746054410934,0.00420043058693409,-0.0011812543962150812,-0.1813642382621765,0.10424547642469406,9.792457580566406,0.0,0.0,0.0,0.0,0.0,0.0,0.0,0.0,0.0,0.0,0.0,1,0,False,False,True,1,0.0,0.0,2.2215697275602158,0.4773674590948822,0.8004043579101563,0.0,0.0,0.0,0.0,0.0,0.0,0.0,0.0026000000000000007,0.045200000000000004,0.15359260000000008,0.0,0.0,0.0,-0.0,0.0,0.005,0.11,0.03,10.02,0.0,0.0,0.0,0.0158428605645895,-0.0009798459941521287
57,2026-03-25 19:35:12.761778,1774438512.7618196,1774438512.7618532,45823,1774438512.7851405,ego_vehicle/odometry,ego_vehicle,-18.803853093965742,4.704416371247001,-1.403698444366455,0.06775396309533202,-0.01734056579307699,-0.9973360668272561,0.02072378026305363,0.037748493254184744,0.134836420416832,-3.0974912643432617,0.0,0.0,0.0,-0.021748296916484833,0.003935875371098518,-0.0017135137459263206,-0.2143588811159134,0.12161614000797272,9.774443626403809,0.0,0.0,0.0,0.0,0.0,0.0,0.0,0.0,0.0,0.0,0.0,1,0,False,False,True,1,0.0,0.0,2.2215697275602158,0.4773674590948822,0.8004043579101563,0.0,0.0,0.0,0.0,0.0,0.0,0.0,0.0026000000000000007,0.045200000000000004,0.15359260000000008,0.0,0.0,0.0,-0.0,0.0,0.005,0.11,0.03,10.02,0.0,0.0,0.0,0.0158428605645895,-0.0009798459941521287
58,2026-03-25 19:35:12.771976,1774438512.7720113,1774438512.7720416,45824,1774438512.7851405,ego_vehicle/odometry,ego_vehicle,-18.803853093965742,4.704416371247001,-1.403698444366455,0.06775396309533202,-0.01734056579307699,-0.9973360668272561,0.02072378026305363,0.037748493254184744,0.134836420416832,-3.0974912643432617,0.0,0.0,0.0,-0.018813785165548325,0.0034010233357548714,-0.0019832889083772898,-0.1872568279504776,0.031069830060005188,9.706562995910645,0.0,0.0,0.0,0.0,0.0,0.0,0.0,0.0,0.0,0.0,0.0,1,0,False,False,True,1,0.0,0.0,2.2215697275602158,0.4773674590948822,0.8004043579101563,0.0,0.0,0.0,0.0,0.0,0.0,0.0,0.0026,0.0452,0.15369259999999982,0.0,0.0,0.0,-0.003,0.0,0.005,0.14,-0.03,10.0,0.0,0.0,0.0,0.016187183558940887,0.0026402263902127743
59,2026-03-25 19:35:12.781750,1774438512.7817862,1774438512.7818131,45825,1774438512.7851405,ego_vehicle/odometry,ego_vehicle,-18.803853093965742,4.704416371247001,-1.403698444366455,0.06775396309533202,-0.01734056579307699,-0.9973360668272561,0.02072378026305363,0.037748493254184744,0.134836420416832,-3.0974912643432617,0.0,0.0,0.0,-0.016952887177467346,0.004200044088065624,-0.0009149933466687799,-0.19568771123886108,0.03826282545924187,9.739008903503418,0.0,0.0,0.0,0.0,0.0,0.0,0.0,0.0,0.0,0.0,0.0,1,0,False,False,True,1,0.0,0.0,2.2215697275602158,0.4773674590948822,0.8004043579101563,0.0,0.0,0.0,0.0,0.0,0.0,0.0,0.0026000000000000003,0.045499999999999985,0.1536925999999998,0.0,0.0,0.0,-0.002,0.0,0.001,0.12,0.0,10.0,0.0,0.0,0.0,0.016187183558940887,0.0026402263902127743
60,2026-03-25 19:35:12.793297,1774438512.7933304,1774438512.793358,45826,1774438512.7851405,ego_vehicle/odometry,ego_vehicle,-18.803853093965742,4.704416371247001,-1.403698444366455,0.06775396309533202,-0.01734056579307699,-0.9973360668272561,0.02072378026305363,0.037748493254184744,0.134836420416832,-3.0974912643432617,0.0,0.0,0.0,-0.017482571303844452,0.0026029867585748434,-0.0003845003084279597,-0.19570963084697723,0.023295626044273376,9.758821487426758,0.0,0.0,0.0,0.0,0.0,0.0,0.0,0.0,0.0,0.0,0.0,1,0,False,False,True,1,0.0,0.0,2.2215697275602158,0.4773674590948822,0.8004043579101563,0.0,0.0,0.0,0.0,0.0,0.0,0.0,0.0026000000000000003,0.045499999999999985,0.1536925999999998,0.0,0.0,0.0,-0.002,0.0,0.001,0.12,0.0,10.0,0.0,0.0,0.0,0.0162024088203907,0.0022653057239949703
61,2026-03-25 19:35:12.801709,1774438512.8017418,1774438512.8017707,45827,1774438512.7851405,ego_vehicle/odometry,ego_vehicle,-18.803853093965742,4.704416371247001,-1.403698444366455,0.06775396309533202,-0.01734056579307699,-0.9973360668272561,0.02072378026305363,0.037748493254184744,0.134836420416832,-3.0974912643432617,0.00040435791015625,0.0,0.0,-0.018021078780293465,0.0026058070361614227,0.0017509873723611236,-0.20295508205890656,0.1030253991484642,9.785262107849121,0.0,0.0,0.0,0.0,0.0,0.0,0.0,0.091552734375,0.091552734375,0.091552734375,0.091552734375,1,0,False,False,True,1,0.0,0.0,2.219206220233932,0.4773321731451752,0.8,0.0,0.0,0.0,0.0,0.0,0.0,0.0,0.0026000000000000003,0.045499999999999985,0.1536925999999998,0.0,0.0,0.0,-0.002,0.0,0.001,0.12,0.0,10.0,0.0,0.0,0.0,0.0162024088203907,0.0022653057239949703
62,2026-03-25 19:35:12.811823,1774438512.8118615,1774438512.8118923,45828,1774438512.8345807,ego_vehicle/odometry,ego_vehicle,-18.805410462491455,4.705277613066627,-1.404035210609436,0.06781351980124045,-0.01726696186423961,-0.9973324614436067,0.020763908856046603,0.03760870918631555,0.134957492351532,-3.0974178314208984,0.00040435791015625,0.0,0.0,-0.016958313062787056,0.003663471434265375,0.002813037484884262,-0.2011214792728424,0.08625248074531555,9.742594718933105,0.0,0.0,0.0,0.0,0.0,0.0,0.0,0.091552734375,0.091552734375,0.091552734375,0.091552734375,1,0,False,False,True,1,0.0,0.0,2.219206220233932,0.4773321731451752,0.8,0.0,0.0,0.0,0.0,0.0,0.0,0.0,0.0026,0.0452,0.15369259999999982,0.0,0.0,0.0,-0.003,0.0,-0.0,0.18,0.02,9.91,0.0,0.0,0.0,0.016459954902529716,0.00438034487888217
63,2026-03-25 19:35:12.821869,1774438512.821904,1774438512.821933,45829,1774438512.844469,ego_vehicle/odometry,ego_vehicle,-18.80573072020677,4.705452425475139,-1.4040993452072144,0.06782230838034356,-0.017254819181443046,-0.9973321989187139,0.020757906949893216,0.03758388012647627,0.134975865483284,-3.097431182861328,0.00040435791015625,0.0,0.0,-0.01802174188196659,0.0020708758383989334,0.00308088306337595,-0.16992591321468353,0.1162203922867775,9.755217552185059,0.0,0.0,0.0,0.0,0.0,0.0,0.0,0.091552734375,0.091552734375,0.091552734375,0.091552734375,1,0,False,False,True,1,0.0,0.0,2.219206220233932,0.4773321731451752,0.8,0.0,0.0,0.0,0.0,0.0,0.0,0.0,0.0026000000000000007,0.045200000000000004,0.15359260000000008,0.0,0.0,0.0,-0.001,0.0,0.002,0.13,0.08,10.040000000000001,0.0,0.0,0.0,0.016459954902529716,0.00438034487888217
64,2026-03-25 19:35:12.831803,1774438512.8318374,1774438512.8318648,45830,1774438512.844469,ego_vehicle/odometry,ego_vehicle,-18.80573072020677,4.705452425475139,-1.4040993452072144,0.06782230838034356,-0.017254819181443046,-0.9973321989187139,0.020757906949893216,0.03758388012647627,0.134975865483284,-3.097431182861328,-0.00040435791015625,0.0,0.0,-0.022283479571342468,0.002337696496397257,0.001482199179008603,-0.1813783049583435,0.15101505815982819,9.787647247314453,0.0,0.0,0.0,0.0,0.0,0.0,0.0,-0.091552734375,-0.091552734375,-0.091552734375,-0.091552734375,1,0,False,False,True,1,0.0,0.0,2.219206220233932,0.4773321731451752,0.8,0.0,0.0,0.0,0.0,0.0,0.0,0.0,0.0026000000000000007,0.045200000000000004,0.15359260000000008,0.0,0.0,0.0,-0.001,0.0,0.002,0.13,0.08,10.040000000000001,0.0,0.0,0.0,0.01616472750902176,0.0005441238172352314
65,2026-03-25 19:35:12.842019,1774438512.842053,1774438512.8420773,45831,1774438512.844469,ego_vehicle/odometry,ego_vehicle,-18.80573072020677,4.705452425475139,-1.4040993452072144,0.06782230838034356,-0.017254819181443046,-0.9973321989187139,0.020757906949893216,0.03758388012647627,0.134975865483284,-3.097431182861328,0.0,0.0,0.0,-0.022284097969532013,0.0028710132464766502,0.0009507315699011087,-0.19576196372509003,0.1665843427181244,9.766630172729492,0.0,0.0,0.0,0.0,0.0,0.0,0.0,0.0,0.0,0.0,0.0,1,0,False,False,True,1,0.0,0.0,2.219206220233932,0.4773321731451752,0.8,0.0,0.0,0.0,0.0,0.0,0.0,0.0,0.0026,0.0452,0.15369259999999982,0.0,0.0,0.0,-0.0,-0.001,0.005,0.16,0.05,10.02,0.0,0.0,0.0,0.01616472750902176,0.0005441238172352314
66,2026-03-25 19:35:12.851918,1774438512.8519502,1774438512.8519754,45832,1774438512.844469,ego_vehicle/odometry,ego_vehicle,-18.80573072020677,4.705452425475139,-1.4040993452072144,0.06782230838034356,-0.017254819181443046,-0.9973321989187139,0.020757906949893216,0.03758388012647627,0.134975865483284,-3.097431182861328,0.0,0.0,0.0,-0.02148037776350975,0.002868682611733675,-0.0006510769599117339,-0.16388529539108276,0.09883049130439758,9.716768264770508,0.0,0.0,0.0,0.0,0.0,0.0,0.0,0.0,0.0,0.0,0.0,1,0,False,False,True,1,0.0,0.0,2.219321758935037,0.47739225462710877,0.8,0.0,0.0,0.0,0.0,0.0,0.0,0.0,0.0026,0.0452,0.15369259999999982,0.0,0.0,0.0,-0.0,-0.001,0.005,0.16,0.05,10.02,0.0,0.0,0.0,0.015699444338679314,-0.00420437753200531
67,2026-03-25 19:35:12.861813,1774438512.8618526,1774438512.8618824,45833,1774438512.844469,ego_vehicle/odometry,ego_vehicle,-18.80573072020677,4.705452425475139,-1.4040993452072144,0.06782230838034356,-0.017254819181443046,-0.9973321989187139,0.020757906949893216,0.03758388012647627,0.134975865483284,-3.097431182861328,0.00040435791015625,0.0,0.0,-0.021215874701738358,0.00473072100430727,-0.0019820404704660177,-0.1813194751739502,0.07605935633182526,9.753410339355469,0.0,0.0,0.0,0.0,0.0,0.0,0.0,0.091552734375,0.091552734375,0.091552734375,0.091552734375,1,0,False,False,True,1,0.0,0.0,2.219321758935037,0.47739225462710877,0.8,0.0,0.0,0.0,0.0,0.0,0.0,0.0,0.0026,0.0452,0.15369259999999982,0.0,0.0,0.0,-0.0,-0.001,0.005,0.16,0.05,10.02,0.0,0.0,0.0,0.015699444338679314,-0.00420437753200531
68,2026-03-25 19:35:12.871949,1774438512.871983,1774438512.8720126,45834,1774438512.884021,ego_vehicle/odometry,ego_vehicle,-18.805122313885903,4.703936940782069,-1.4012908935546875,0.06773538747799247,-0.017324799510835327,-0.9973369220187613,0.020756507010063513,0.037720270454883575,0.13479866087436676,-3.097428321838379,0.00040435791015625,0.0,0.0,-0.020150568336248398,0.0034034373238682747,-0.00038140418473631144,-0.1951199173927307,0.038877934217453,9.769039154052734,0.0,0.0,0.0,0.0,0.0,0.0,0.0,0.091552734375,0.091552734375,0.091552734375,0.091552734375,1,0,False,False,True,1,0.0,0.0,2.219321758935037,0.47739225462710877,0.8,0.0,0.0,0.0,0.0,0.0,0.0,0.0,0.0026,0.0452,0.15369259999999982,0.0,0.0,0.0,-0.003,0.0,0.003,0.12,0.0,9.98,0.0,0.0,0.0,0.0160854309797287,0.0004959569196216762
69,2026-03-25 19:35:12.881670,1774438512.8817098,1774438512.881742,45835,1774438512.884021,ego_vehicle/odometry,ego_vehicle,-18.805122313885903,4.703936940782069,-1.4012908935546875,0.06773538747799247,-0.017324799510835327,-0.9973369220187613,0.020756507010063513,0.037720270454883575,0.13479866087436676,-3.097428321838379,-0.00040435791015625,0.0,0.0,-0.019349588081240654,0.003929678350687027,-0.0009191719582304358,-0.20415470004081726,0.07428401708602905,9.773221015930176,0.0,0.0,0.0,0.0,0.0,0.0,0.0,-0.091552734375,-0.091552734375,-0.091552734375,-0.091552734375,1,0,False,False,True,1,0.0,0.0,2.219321758935037,0.47739225462710877,0.8,0.0,0.0,0.0,0.0,0.0,0.0,0.0,0.0026000000000000003,0.045499999999999985,0.1536925999999998,0.0,0.0,0.0,-0.005,-0.001,-0.0,0.15,-0.05,9.9,0.0,0.0,0.0,0.0160854309797287,0.0004959569196216762
70,2026-03-25 19:35:12.891785,1774438512.8918195,1774438512.8918493,45836,1774438512.884021,ego_vehicle/odometry,ego_vehicle,-18.805122313885903,4.703936940782069,-1.4012908935546875,0.06773538747799247,-0.017324799510835327,-0.9973369220187613,0.020756507010063513,0.037720270454883575,0.13479866087436676,-3.097428321838379,-0.00040435791015625,0.0,0.0,-0.017482470721006393,0.0023330245167016983,0.0004115372721571475,-0.19870369136333466,0.010723792016506195,9.743788719177246,0.0,0.0,0.0,0.0,0.0,0.0,0.0,-0.091552734375,-0.091552734375,-0.091552734375,-0.091552734375,1,0,False,False,True,1,0.0,0.0,2.219321758935037,0.47739225462710877,0.8,0.0,0.0,0.0,0.0,0.0,0.0,0.0,0.0026000000000000003,0.045499999999999985,0.1536925999999998,0.0,0.0,0.0,-0.005,-0.001,-0.0,0.15,-0.05,9.9,0.0,0.0,0.0,0.01686498150229454,0.008194235153496265
71,2026-03-25 19:35:12.901648,1774438512.9016798,1774438512.9017057,45837,1774438512.884021,ego_vehicle/odometry,ego_vehicle,-18.805122313885903,4.703936940782069,-1.4012908935546875,0.06773538747799247,-0.017324799510835327,-0.9973369220187613,0.020756507010063513,0.037720270454883575,0.13479866087436676,-3.097428321838379,0.0,0.0,0.0,-0.017753850668668747,0.0018106340430676937,0.002019221894443035,-0.18727916479110718,0.04603571444749832,9.742027282714844,0.0,0.0,0.0,0.0,0.0,0.0,0.0,0.0,0.0,0.0,0.0,1,0,False,False,True,1,0.0,0.0,2.2182124480071623,0.477395115650058,0.8004043579101563,0.0,0.0,0.0,0.0,0.0,0.0,0.0,0.0026000000000000007,0.045200000000000004,0.15359260000000008,0.0,0.0,0.0,-0.002,0.0,-0.0,0.11,0.03,10.03,0.0,0.0,0.0,0.01686498150229454,0.008194235153496265
72,2026-03-25 19:35:12.913545,1774438512.9135866,1774438512.9136133,45838,1774438512.933456,ego_vehicle/odometry,ego_vehicle,-18.806697710927867,4.704757536953306,-1.4016376733779907,0.06773375370753601,-0.017237573627336338,-0.9973369892712318,0.020831094438937554,0.03755469247698784,0.1347964406013489,-3.0972900390625,0.0,0.0,0.0,-0.018023796379566193,0.002073979238048196,0.00361688993871212,-0.19636334478855133,0.09163931012153625,9.799677848815918,0.0,0.0,0.0,0.0,0.0,0.0,0.0,0.0,0.0,0.0,0.0,1,0,False,False,True,1,0.0,0.0,2.2182124480071623,0.477395115650058,0.8004043579101563,0.0,0.0,0.0,0.0,0.0,0.0,0.0,0.0026000000000000007,0.045200000000000004,0.15359260000000008,0.0,0.0,0.0,-0.002,0.0,-0.0,0.11,0.03,10.03,0.0,0.0,0.0,0.01671585626900196,0.0050645386800169945
73,2026-03-25 19:35:12.922186,1774438512.922224,1774438512.9222543,45839,1774438512.933456,ego_vehicle/odometry,ego_vehicle,-18.806697710927867,4.704757536953306,-1.4016376733779907,0.06773375370753601,-0.017237573627336338,-0.9973369892712318,0.020831094438937554,0.03755469247698784,0.1347964406013489,-3.0972900390625,0.0,0.0,0.0,-0.018823059275746346,0.003137323074042797,0.0022844066843390465,-0.1903676688671112,0.16238009929656982,9.782257080078125,0.0,0.0,0.0,0.0,0.0,0.0,0.0,0.0,0.0,0.0,0.0,1,0,False,False,True,1,0.0,0.0,2.2182124480071623,0.477395115650058,0.8004043579101563,0.0,0.0,0.0,0.0,0.0,0.0,0.0,0.0026000000000000007,0.045200000000000004,0.15359260000000008,0.0,0.0,0.0,-0.002,0.0,-0.0,0.11,0.03,10.03,0.0,0.0,0.0,0.01671585626900196,0.0050645386800169945
